$GNRMC,022426.80,A,3733.5415497,N,12659.6050888,E,0.010,,240822,,,R,V*09
$GNGGA,022426.80,3733.5415497,N,12659.6050888,E,4,12,0.50,49.027,M,18.475,M,0.8,0020*53
$GNHDT,175.813,T*22
$GNRMC,022427.00,A,3733.5415488,N,12659.6050902,E,0.019,,240822,,,R,V*04
$GNGGA,022427.00,3733.5415488,N,12659.6050902,E,4,12,0.50,49.027,M,18.475,M,1.0,0020*5E
$GNHDT,175.751,T*2B
$GNRMC,022427.20,A,3733.5415493,N,12659.6050908,E,0.019,,240822,,,R,V*06
$GNGGA,022427.20,3733.5415493,N,12659.6050908,E,4,12,0.50,49.025,M,18.475,M,0.2,0020*5D
$GNHDT,175.783,T*24
$GNRMC,022427.40,A,3733.5415497,N,12659.6050904,E,0.009,,240822,,,R,V*09
$GNGGA,022427.40,3733.5415497,N,12659.6050904,E,4,12,0.50,49.023,M,18.475,M,0.4,0020*53
$GNHDT,175.828,T*2A
$GNRMC,022427.60,A,3733.5415488,N,12659.6050907,E,0.008,,240822,,,R,V*07
$GNGGA,022427.60,3733.5415488,N,12659.6050907,E,4,12,0.50,49.022,M,18.475,M,0.6,0020*5F
$GNHDT,175.862,T*24
$GNRMC,022427.80,A,3733.5415487,N,12659.6050887,E,0.017,,240822,,,R,V*01
$GNGGA,022427.80,3733.5415487,N,12659.6050887,E,4,12,0.50,49.024,M,18.475,M,0.8,0020*5F
$GNHDT,175.933,T*21
$GNRMC,022428.00,A,3733.5415489,N,12659.6050908,E,0.010,,240822,,,R,V*09
$GNGGA,022428.00,3733.5415489,N,12659.6050908,E,4,12,0.50,49.022,M,18.475,M,1.0,0020*5F
$GNHDT,175.862,T*24
$GNRMC,022428.20,A,3733.5415492,N,12659.6050907,E,0.002,,240822,,,R,V*0D
$GNGGA,022428.20,3733.5415492,N,12659.6050907,E,4,12,0.50,49.023,M,18.475,M,0.2,0020*5A
$GNHDT,175.854,T*21
$GNRMC,022428.40,A,3733.5415487,N,12659.6050901,E,0.015,,240822,,,R,V*0F
$GNGGA,022428.40,3733.5415487,N,12659.6050901,E,4,12,0.50,49.024,M,18.475,M,0.4,0020*5F
$GNHDT,175.851,T*24
$GNRMC,022428.60,A,3733.5415494,N,12659.6050900,E,0.017,,240822,,,R,V*0C
$GNGGA,022428.60,3733.5415494,N,12659.6050900,E,4,12,0.50,49.026,M,18.475,M,0.6,0020*5E
$GNHDT,175.851,T*24
$GNRMC,022428.80,A,3733.5415484,N,12659.6050897,E,0.016,,240822,,,R,V*0D
$GNGGA,022428.80,3733.5415484,N,12659.6050897,E,4,12,0.50,49.025,M,18.475,M,0.8,0020*53
$GNHDT,175.886,T*2E
$GNRMC,022429.00,A,3733.5415478,N,12659.6050859,E,0.022,,240822,,,R,V*02
$GNGGA,022429.00,3733.5415478,N,12659.6050859,E,4,12,0.50,49.024,M,18.475,M,1.0,0020*53
$GNHDT,176.150,T*2F
$GNRMC,022429.20,A,3733.5415452,N,12659.6050842,E,0.015,,240822,,,R,V*06
$GNGGA,022429.20,3733.5415452,N,12659.6050842,E,4,12,0.50,49.022,M,18.475,M,1.2,0020*57
$GNHDT,176.262,T*2D
$GNRMC,022429.40,A,3733.5415465,N,12659.6050847,E,0.056,,240822,,,R,V*06
$GNGGA,022429.40,3733.5415465,N,12659.6050847,E,4,12,0.50,49.019,M,18.475,M,1.4,0020*5E
$GNHDT,176.260,T*2F
$GNRMC,022429.60,A,3733.5415479,N,12659.6050858,E,0.014,,240822,,,R,V*01
$GNGGA,022429.60,3733.5415479,N,12659.6050858,E,4,12,0.50,49.012,M,18.475,M,0.6,0020*57
$GNHDT,176.304,T*2C
$GNRMC,022429.80,A,3733.5415488,N,12659.6050854,E,0.005,,240822,,,R,V*0D
$GNGGA,022429.80,3733.5415488,N,12659.6050854,E,4,12,0.50,49.008,M,18.475,M,0.8,0020*5E
$GNHDT,176.343,T*2F
$GNRMC,022430.00,A,3733.5415497,N,12659.6050860,E,0.018,,240822,,,R,V*08
$GNGGA,022430.00,3733.5415497,N,12659.6050860,E,4,12,0.50,49.005,M,18.475,M,1.0,0020*53
$GNHDT,176.282,T*23
$GNRMC,022430.20,A,3733.5415499,N,12659.6050860,E,0.017,,240822,,,R,V*0B
$GNGGA,022430.20,3733.5415499,N,12659.6050860,E,4,12,0.50,49.008,M,18.475,M,1.2,0020*50
$GNHDT,176.236,T*2C
$GNRMC,022430.40,A,3733.5415505,N,12659.6050874,E,0.022,,240822,,,R,V*0A
$GNGGA,022430.40,3733.5415505,N,12659.6050874,E,4,12,0.50,49.007,M,18.475,M,1.4,0020*5E
$GNHDT,176.228,T*23
$GNRMC,022430.60,A,3733.5415487,N,12659.6050847,E,0.002,,240822,,,R,V*01
$GNGGA,022430.60,3733.5415487,N,12659.6050847,E,4,12,0.50,49.022,M,18.475,M,0.6,0020*53
$GNHDT,176.295,T*25
$GNRMC,022430.80,A,3733.5415492,N,12659.6050854,E,0.006,,240822,,,R,V*0D
$GNGGA,022430.80,3733.5415492,N,12659.6050854,E,4,12,0.50,49.016,M,18.475,M,0.8,0020*52
$GNHDT,176.242,T*2F
$GNRMC,022431.00,A,3733.5415503,N,12659.6050869,E,0.026,,240822,,,R,V*01
$GNGGA,022431.00,3733.5415503,N,12659.6050869,E,4,12,0.50,49.020,M,18.475,M,1.0,0020*50
$GNHDT,176.176,T*2B
$GNRMC,022431.20,A,3733.5415498,N,12659.6050863,E,0.010,,240822,,,R,V*0F
$GNGGA,022431.20,3733.5415498,N,12659.6050863,E,4,12,0.50,49.021,M,18.475,M,1.2,0020*58
$GNHDT,176.179,T*24
$GNRMC,022431.40,A,3733.5415507,N,12659.6050850,E,0.005,,240822,,,R,V*0A
$GNGGA,022431.40,3733.5415507,N,12659.6050850,E,4,12,0.50,49.024,M,18.475,M,0.4,0020*5B
$GNHDT,176.168,T*24
$GNRMC,022431.60,A,3733.5415507,N,12659.6050867,E,0.016,,240822,,,R,V*0E
$GNGGA,022431.60,3733.5415507,N,12659.6050867,E,4,12,0.50,49.026,M,18.475,M,0.6,0020*5D
$GNHDT,175.903,T*22
$GNRMC,022431.80,A,3733.5415519,N,12659.6050859,E,0.028,,240822,,,R,V*0F
$GNGGA,022431.80,3733.5415519,N,12659.6050859,E,4,12,0.50,49.024,M,18.475,M,0.8,0020*5D
$GNHDT,175.970,T*26
$GNRMC,022432.00,A,3733.5415522,N,12659.6050859,E,0.012,,240822,,,R,V*05
$GNGGA,022432.00,3733.5415522,N,12659.6050859,E,4,12,0.50,49.022,M,18.475,M,1.0,0020*51
$GNHDT,176.025,T*2C
$GNRMC,022432.20,A,3733.5415514,N,12659.6050833,E,0.020,,240822,,,R,V*0F
$GNGGA,022432.20,3733.5415514,N,12659.6050833,E,4,12,0.50,49.019,M,18.475,M,1.2,0020*50
$GNHDT,176.125,T*2D
$GNRMC,022432.40,A,3733.5415505,N,12659.6050841,E,0.007,,240822,,,R,V*09
$GNGGA,022432.40,3733.5415505,N,12659.6050841,E,4,12,0.50,49.023,M,18.475,M,0.4,0020*5D
$GNHDT,176.154,T*2B
$GNRMC,022432.60,A,3733.5415477,N,12659.6050838,E,0.046,,240822,,,R,V*04
$GNGGA,022432.60,3733.5415477,N,12659.6050838,E,4,12,0.50,49.026,M,18.475,M,0.6,0020*52
$GNHDT,176.187,T*25
$GNRMC,022432.80,A,3733.5415490,N,12659.6050832,E,0.028,,240822,,,R,V*01
$GNGGA,022432.80,3733.5415490,N,12659.6050832,E,4,12,0.50,49.034,M,18.475,M,0.8,0020*52
$GNHDT,176.226,T*2D
$GNRMC,022433.00,A,3733.5415482,N,12659.6050831,E,0.004,,240822,,,R,V*06
$GNGGA,022433.00,3733.5415482,N,12659.6050831,E,4,12,0.50,49.032,M,18.475,M,1.0,0020*54
$GNHDT,176.155,T*2A
$GNRMC,022433.20,A,3733.5415513,N,12659.6050891,E,0.037,,240822,,,R,V*07
$GNGGA,022433.20,3733.5415513,N,12659.6050891,E,4,12,0.50,49.020,M,18.475,M,1.2,0020*54
$GNHDT,176.013,T*29
$GNRMC,022433.40,A,3733.5415498,N,12659.6050914,E,0.045,,240822,,,R,V*0A
$GNGGA,022433.40,3733.5415498,N,12659.6050914,E,4,12,0.50,49.019,M,18.475,M,0.4,0020*51
$GNHDT,176.004,T*2F
$GNRMC,022433.60,A,3733.5415500,N,12659.6050917,E,0.002,,240822,,,R,V*08
$GNGGA,022433.60,3733.5415500,N,12659.6050917,E,4,12,0.50,49.018,M,18.475,M,0.6,0020*53
$GNHDT,176.114,T*2F
$GNRMC,022433.80,A,3733.5415523,N,12659.6050937,E,0.030,,240822,,,R,V*04
$GNGGA,022433.80,3733.5415523,N,12659.6050937,E,4,12,0.50,49.022,M,18.475,M,0.8,0020*59
$GNHDT,176.347,T*2B
$GNRMC,022434.00,A,3733.5415584,N,12659.6050873,E,0.137,,240822,,,R,V*01
$GNGGA,022434.00,3733.5415584,N,12659.6050873,E,4,12,0.50,49.033,M,18.475,M,1.0,0020*53
$GNHDT,177.420,T*2C
$GNRMC,022434.20,A,3733.5415614,N,12659.6050855,E,0.094,,240822,,,R,V*05
$GNGGA,022434.20,3733.5415614,N,12659.6050855,E,4,12,0.50,49.024,M,18.475,M,1.2,0020*5B
$GNHDT,178.534,T*27
$GNRMC,022434.40,A,3733.5415586,N,12659.6050990,E,0.204,97.49,240822,,,R,V*25
$GNGGA,022434.40,3733.5415586,N,12659.6050990,E,4,12,0.50,49.027,M,18.475,M,0.4,0020*59
$GNHDT,178.145,T*25
$GNRMC,022434.60,A,3733.5415512,N,12659.6051401,E,0.585,104.83,240822,,,R,V*1D
$GNGGA,022434.60,3733.5415512,N,12659.6051401,E,4,12,0.50,49.016,M,18.475,M,0.6,0020*52
$GNHDT,176.104,T*2E
$GNRMC,022434.80,A,3733.5415424,N,12659.6051902,E,0.742,100.95,240822,,,R,V*13
$GNGGA,022434.80,3733.5415424,N,12659.6051902,E,4,12,0.50,49.028,M,18.475,M,0.8,0020*55
$GNHDT,173.842,T*20
$GNRMC,022435.00,A,3733.5415407,N,12659.6052524,E,0.908,94.37,240822,,,R,V*24
$GNGGA,022435.00,3733.5415407,N,12659.6052524,E,4,12,0.50,49.025,M,18.475,M,1.0,0020*52
$GNHDT,171.761,T*2C
$GNRMC,022435.20,A,3733.5415532,N,12659.6052824,E,0.490,61.38,240822,,,R,V*25
$GNGGA,022435.20,3733.5415532,N,12659.6052824,E,4,12,0.50,49.028,M,18.475,M,0.2,0020*54
$GNHDT,173.404,T*2E
$GNRMC,022435.40,A,3733.5415623,N,12659.6053262,E,0.665,75.05,240822,,,R,V*2A
$GNGGA,022435.40,3733.5415623,N,12659.6053262,E,4,12,0.50,49.020,M,18.475,M,0.4,0020*56
$GNHDT,174.783,T*25
$GNRMC,022435.60,A,3733.5415687,N,12659.6053862,E,0.812,82.50,240822,,,R,V*2A
$GNGGA,022435.60,3733.5415687,N,12659.6053862,E,4,12,0.50,49.019,M,18.475,M,0.6,0020*58
$GNHDT,175.199,T*29
$GNRMC,022435.80,A,3733.5415754,N,12659.6054403,E,0.816,81.34,240822,,,R,V*22
$GNGGA,022435.80,3733.5415754,N,12659.6054403,E,4,12,0.50,49.005,M,18.475,M,0.8,0020*56
$GNHDT,175.879,T*2E
$GNRMC,022436.00,A,3733.5415850,N,12659.6055039,E,0.908,78.80,240822,,,R,V*29
$GNGGA,022436.00,3733.5415850,N,12659.6055039,E,4,12,0.50,49.018,M,18.475,M,1.0,0020*5F
$GNHDT,176.052,T*2C
$GNRMC,022436.20,A,3733.5415891,N,12659.6055845,E,1.184,86.01,240822,,,R,V*20
$GNGGA,022436.20,3733.5415891,N,12659.6055845,E,4,12,0.50,49.033,M,18.475,M,0.2,0020*59
$GNHDT,175.952,T*26
$GNRMC,022436.40,A,3733.5415943,N,12659.6056596,E,1.121,83.43,240822,,,R,V*24
$GNGGA,022436.40,3733.5415943,N,12659.6056596,E,4,12,0.50,49.006,M,18.475,M,0.4,0020*51
$GNHDT,176.345,T*29
$GNRMC,022436.60,A,3733.5415982,N,12659.6057281,E,0.994,85.01,240822,,,R,V*2C
$GNGGA,022436.60,3733.5415982,N,12659.6057281,E,4,12,0.50,49.017,M,18.475,M,0.6,0020*5C
$GNHDT,177.556,T*2C
$GNRMC,022436.80,A,3733.5416062,N,12659.6057914,E,0.867,81.27,240822,,,R,V*2C
$GNGGA,022436.80,3733.5416062,N,12659.6057914,E,4,12,0.50,49.010,M,18.475,M,0.8,0020*58
$GNHDT,178.334,T*21
$GNRMC,022437.00,A,3733.5416092,N,12659.6058555,E,0.884,87.18,240822,,,R,V*2B
$GNGGA,022437.00,3733.5416092,N,12659.6058555,E,4,12,0.50,49.013,M,18.475,M,1.0,0020*52
$GNHDT,179.041,T*21
$GNRMC,022437.20,A,3733.5416095,N,12659.6059279,E,1.032,89.50,240822,,,R,V*20
$GNGGA,022437.20,3733.5416095,N,12659.6059279,E,4,12,0.50,49.009,M,18.475,M,1.2,0020*56
$GNHDT,178.820,T*2F
$GNRMC,022437.40,A,3733.5416059,N,12659.6060178,E,1.270,93.11,240822,,,R,V*24
$GNGGA,022437.40,3733.5416059,N,12659.6060178,E,4,12,0.50,49.013,M,18.475,M,1.4,0020*55
$GNHDT,177.887,T*2D
$GNRMC,022437.60,A,3733.5416053,N,12659.6061012,E,1.185,90.72,240822,,,R,V*2F
$GNGGA,022437.60,3733.5416053,N,12659.6061012,E,4,12,0.50,49.007,M,18.475,M,0.6,0020*57
$GNHDT,177.347,T*2A
$GNRMC,022437.80,A,3733.5416070,N,12659.6061787,E,1.133,88.27,240822,,,R,V*2F
$GNGGA,022437.80,3733.5416070,N,12659.6061787,E,4,12,0.50,49.007,M,18.475,M,0.8,0020*5D
$GNHDT,176.825,T*24
$GNRMC,022438.00,A,3733.5416091,N,12659.6062505,E,0.983,85.86,240822,,,R,V*28
$GNGGA,022438.00,3733.5416091,N,12659.6062505,E,4,12,0.50,49.021,M,18.475,M,1.0,0020*53
$GNHDT,176.556,T*2D
$GNRMC,022438.20,A,3733.5416115,N,12659.6063180,E,0.960,89.10,240822,,,R,V*21
$GNGGA,022438.20,3733.5416115,N,12659.6063180,E,4,12,0.50,49.021,M,18.475,M,0.2,0020*57
$GNHDT,176.504,T*2A
$GNRMC,022438.40,A,3733.5416152,N,12659.6063944,E,1.109,86.72,240822,,,R,V*29
$GNGGA,022438.40,3733.5416152,N,12659.6063944,E,4,12,0.50,49.010,M,18.475,M,0.4,0020*56
$GNHDT,176.396,T*27
$GNRMC,022438.60,A,3733.5416186,N,12659.6064648,E,1.026,87.20,240822,,,R,V*2C
$GNGGA,022438.60,3733.5416186,N,12659.6064648,E,4,12,0.50,49.009,M,18.475,M,0.6,0020*53
$GNHDT,176.752,T*2B
$GNRMC,022438.80,A,3733.5416223,N,12659.6065434,E,1.096,86.29,240822,,,R,V*25
$GNGGA,022438.80,3733.5416223,N,12659.6065434,E,4,12,0.50,49.007,M,18.475,M,0.8,0020*59
$GNHDT,176.316,T*2F
$GNRMC,022439.00,A,3733.5416252,N,12659.6066255,E,1.155,88.06,240822,,,R,V*25
$GNGGA,022439.00,3733.5416252,N,12659.6066255,E,4,12,0.50,48.993,M,18.475,M,1.0,0020*58
$GNHDT,176.007,T*2C
$GNRMC,022439.20,A,3733.5416280,N,12659.6067059,E,1.205,87.63,240822,,,R,V*2D
$GNGGA,022439.20,3733.5416280,N,12659.6067059,E,4,12,0.50,48.992,M,18.475,M,1.2,0020*59
$GNHDT,175.609,T*27
$GNRMC,022439.40,A,3733.5416327,N,12659.6067859,E,1.096,86.31,240822,,,R,V*21
$GNGGA,022439.40,3733.5416327,N,12659.6067859,E,4,12,0.50,48.998,M,18.475,M,0.4,0020*56
$GNHDT,175.350,T*2E
$GNRMC,022439.60,A,3733.5416365,N,12659.6068642,E,1.117,84.61,240822,,,R,V*21
$GNGGA,022439.60,3733.5416365,N,12659.6068642,E,4,12,0.50,48.976,M,18.475,M,0.6,0020*5B
$GNHDT,175.578,T*22
$GNRMC,022439.80,A,3733.5416482,N,12659.6069331,E,1.069,82.39,240822,,,R,V*22
$GNGGA,022439.80,3733.5416482,N,12659.6069331,E,4,12,0.50,48.994,M,18.475,M,0.8,0020*59
$GNHDT,176.479,T*21
$GNRMC,022440.00,A,3733.5416543,N,12659.6070091,E,1.028,81.70,240822,,,R,V*22
$GNGGA,022440.00,3733.5416543,N,12659.6070091,E,4,12,0.50,48.992,M,18.475,M,1.0,0020*5D
$GNHDT,177.697,T*22
$GNRMC,022440.20,A,3733.5416589,N,12659.6070863,E,1.172,86.45,240822,,,R,V*2C
$GNGGA,022440.20,3733.5416589,N,12659.6070863,E,4,12,0.50,48.997,M,18.475,M,1.2,0020*5B
$GNHDT,177.991,T*2B
$GNRMC,022440.40,A,3733.5416573,N,12659.6071860,E,1.386,89.81,240822,,,R,V*23
$GNGGA,022440.40,3733.5416573,N,12659.6071860,E,4,12,0.50,48.992,M,18.475,M,0.4,0020*58
$GNHDT,177.152,T*2C
$GNRMC,022440.60,A,3733.5416572,N,12659.6072765,E,1.268,90.37,240822,,,R,V*2D
$GNGGA,022440.60,3733.5416572,N,12659.6072765,E,4,12,0.50,48.991,M,18.475,M,0.6,0020*53
$GNHDT,176.606,T*2B
$GNRMC,022440.80,A,3733.5416582,N,12659.6073585,E,1.221,88.67,240822,,,R,V*20
$GNGGA,022440.80,3733.5416582,N,12659.6073585,E,4,12,0.50,48.995,M,18.475,M,0.8,0020*55
$GNHDT,176.536,T*2B
$GNRMC,022441.00,A,3733.5416661,N,12659.6074382,E,1.124,86.10,240822,,,R,V*29
$GNGGA,022441.00,3733.5416661,N,12659.6074382,E,4,12,0.50,49.006,M,18.475,M,1.0,0020*5F
$GNHDT,176.440,T*2B
$GNRMC,022441.20,A,3733.5416672,N,12659.6075150,E,1.093,84.63,240822,,,R,V*2E
$GNGGA,022441.20,3733.5416672,N,12659.6075150,E,4,12,0.50,48.993,M,18.475,M,1.2,0020*55
$GNHDT,177.107,T*2C
$GNRMC,022441.40,A,3733.5416788,N,12659.6075913,E,1.137,83.15,240822,,,R,V*2A
$GNGGA,022441.40,3733.5416788,N,12659.6075913,E,4,12,0.50,49.002,M,18.475,M,0.4,0020*5F
$GNHDT,177.588,T*2F
$GNRMC,022441.60,A,3733.5416750,N,12659.6076788,E,1.212,89.61,240822,,,R,V*2F
$GNGGA,022441.60,3733.5416750,N,12659.6076788,E,4,12,0.50,49.000,M,18.475,M,0.6,0020*57
$GNHDT,177.299,T*28
$GNRMC,022441.80,A,3733.5416787,N,12659.6077734,E,1.356,86.60,240822,,,R,V*22
$GNGGA,022441.80,3733.5416787,N,12659.6077734,E,4,12,0.50,48.999,M,18.475,M,0.8,0020*53
$GNHDT,176.652,T*2A
$GNRMC,022442.00,A,3733.5416837,N,12659.6078633,E,1.295,88.84,240822,,,R,V*2E
$GNGGA,022442.00,3733.5416837,N,12659.6078633,E,4,12,0.50,49.011,M,18.475,M,1.0,0020*54
$GNHDT,176.035,T*2D
$GNRMC,022442.20,A,3733.5416852,N,12659.6079508,E,1.278,85.05,240822,,,R,V*22
$GNGGA,022442.20,3733.5416852,N,12659.6079508,E,4,12,0.50,48.987,M,18.475,M,1.2,0020*5A
$GNHDT,176.051,T*2F
$GNRMC,022442.40,A,3733.5416906,N,12659.6080311,E,1.138,85.39,240822,,,R,V*24
$GNGGA,022442.40,3733.5416906,N,12659.6080311,E,4,12,0.50,48.990,M,18.475,M,0.4,0020*55
$GNHDT,176.650,T*28
$GNRMC,022442.60,A,3733.5416983,N,12659.6081105,E,1.153,84.48,240822,,,R,V*27
$GNGGA,022442.60,3733.5416983,N,12659.6081105,E,4,12,0.50,48.980,M,18.475,M,0.6,0020*5F
$GNHDT,176.780,T*24
$GNRMC,022442.80,A,3733.5416965,N,12659.6081931,E,1.140,88.43,240822,,,R,V*2B
$GNGGA,022442.80,3733.5416965,N,12659.6081931,E,4,12,0.50,48.975,M,18.475,M,0.8,0020*52
$GNHDT,177.166,T*2B
$GNRMC,022443.00,A,3733.5417019,N,12659.6082831,E,1.295,88.89,240822,,,R,V*2E
$GNGGA,022443.00,3733.5417019,N,12659.6082831,E,4,12,0.50,48.971,M,18.475,M,1.0,0020*57
$GNHDT,176.414,T*2A
$GNRMC,022443.20,A,3733.5417033,N,12659.6083791,E,1.353,87.57,240822,,,R,V*27
$GNGGA,022443.20,3733.5417033,N,12659.6083791,E,4,12,0.50,48.978,M,18.475,M,0.2,0020*53
$GNHDT,175.932,T*20
$GNRMC,022443.40,A,3733.5417080,N,12659.6084625,E,1.253,87.08,240822,,,R,V*2B
$GNGGA,022443.40,3733.5417080,N,12659.6084625,E,4,12,0.50,48.976,M,18.475,M,0.4,0020*5C
$GNHDT,175.800,T*20
$GNRMC,022443.60,A,3733.5417147,N,12659.6085452,E,1.174,83.01,240822,,,R,V*2B
$GNGGA,022443.60,3733.5417147,N,12659.6085452,E,4,12,0.50,48.974,M,18.475,M,0.6,0020*57
$GNHDT,175.846,T*22
$GNRMC,022443.80,A,3733.5417193,N,12659.6086272,E,1.116,86.69,240822,,,R,V*24
$GNGGA,022443.80,3733.5417193,N,12659.6086272,E,4,12,0.50,48.978,M,18.475,M,0.8,0020*55
$GNHDT,175.989,T*20
$GNRMC,022444.00,A,3733.5417277,N,12659.6087008,E,1.128,84.41,240822,,,R,V*29
$GNGGA,022444.00,3733.5417277,N,12659.6087008,E,4,12,0.50,49.000,M,18.475,M,1.0,0020*53
$GNHDT,176.028,T*21
$GNRMC,022444.20,A,3733.5417301,N,12659.6087807,E,1.133,85.82,240822,,,R,V*28
$GNGGA,022444.20,3733.5417301,N,12659.6087807,E,4,12,0.50,48.987,M,18.475,M,0.2,0020*52
$GNHDT,176.135,T*2C
$GNRMC,022444.40,A,3733.5417353,N,12659.6088628,E,1.190,84.73,240822,,,R,V*23
$GNGGA,022444.40,3733.5417353,N,12659.6088628,E,4,12,0.50,48.996,M,18.475,M,0.4,0020*59
$GNHDT,176.573,T*2A
$GNRMC,022444.60,A,3733.5417374,N,12659.6089520,E,1.224,85.50,240822,,,R,V*22
$GNGGA,022444.60,3733.5417374,N,12659.6089520,E,4,12,0.50,48.976,M,18.476,M,0.6,0020*5B
$GNHDT,176.978,T*2D
$GNRMC,022444.80,A,3733.5417468,N,12659.6090412,E,1.351,85.26,240822,,,R,V*2C
$GNGGA,022444.80,3733.5417468,N,12659.6090412,E,4,12,0.50,48.971,M,18.476,M,0.8,0020*5E
$GNHDT,177.719,T*25
$GNRMC,022445.00,A,3733.5417525,N,12659.6091320,E,1.324,88.15,240822,,,R,V*25
$GNGGA,022445.00,3733.5417525,N,12659.6091320,E,4,12,0.50,48.990,M,18.476,M,1.0,0020*5E
$GNHDT,177.743,T*2A
$GNRMC,022445.20,A,3733.5417527,N,12659.6092240,E,1.282,86.96,240822,,,R,V*29
$GNGGA,022445.20,3733.5417527,N,12659.6092240,E,4,12,0.50,48.994,M,18.476,M,0.2,0020*5D
$GNHDT,177.166,T*2B
$GNRMC,022445.40,A,3733.5417535,N,12659.6093300,E,1.485,89.21,240822,,,R,V*2A
$GNGGA,022445.40,3733.5417535,N,12659.6093300,E,4,12,0.50,48.987,M,18.476,M,0.4,0020*58
$GNHDT,176.432,T*2E
$GNRMC,022445.60,A,3733.5417564,N,12659.6094267,E,1.368,86.54,240822,,,R,V*22
$GNGGA,022445.60,3733.5417564,N,12659.6094267,E,4,12,0.50,48.972,M,18.476,M,0.6,0020*51
$GNHDT,176.858,T*2E
$GNRMC,022445.80,A,3733.5417599,N,12659.6095266,E,1.450,85.56,240822,,,R,V*23
$GNGGA,022445.80,3733.5417599,N,12659.6095266,E,4,12,0.50,48.972,M,18.476,M,0.8,0020*53
$GNHDT,176.968,T*2C
$GNRMC,022446.00,A,3733.5417634,N,12659.6096261,E,1.397,85.82,240822,,,R,V*2D
$GNGGA,022446.00,3733.5417634,N,12659.6096261,E,4,12,0.54,48.937,M,18.476,M,1.0,0020*54
$GNHDT,177.342,T*2F
$GNRMC,022446.20,A,3733.5417678,N,12659.6097341,E,1.586,88.84,240822,,,R,V*28
$GNGGA,022446.20,3733.5417678,N,12659.6097341,E,4,12,0.54,48.958,M,18.476,M,0.2,0020*56
$GNHDT,176.832,T*22
$GNRMC,022446.40,A,3733.5417683,N,12659.6098406,E,1.518,88.00,240822,,,R,V*2A
$GNGGA,022446.40,3733.5417683,N,12659.6098406,E,4,12,0.54,48.956,M,18.476,M,0.4,0020*57
$GNHDT,176.042,T*2D
$GNRMC,022446.60,A,3733.5417705,N,12659.6099363,E,1.340,88.63,240822,,,R,V*2C
$GNGGA,022446.60,3733.5417705,N,12659.6099363,E,4,12,0.50,48.956,M,18.476,M,0.6,0020*59
$GNHDT,175.493,T*26
$GNRMC,022446.80,A,3733.5417750,N,12659.6100258,E,1.326,86.06,240822,,,R,V*27
$GNGGA,022446.80,3733.5417750,N,12659.6100258,E,4,12,0.50,48.944,M,18.476,M,0.8,0020*52
$GNHDT,175.600,T*2E
$GNRMC,022447.00,A,3733.5417833,N,12659.6101182,E,1.364,83.00,240822,,,R,V*24
$GNGGA,022447.00,3733.5417833,N,12659.6101182,E,4,12,0.54,48.940,M,18.476,M,1.0,0020*5D
$GNHDT,176.362,T*2C
$GNRMC,022447.20,A,3733.5417894,N,12659.6102133,E,1.329,85.04,240822,,,R,V*29
$GNGGA,022447.20,3733.5417894,N,12659.6102133,E,4,12,0.50,48.946,M,18.476,M,1.2,0020*5B
$GNHDT,176.359,T*24
$GNRMC,022447.40,A,3733.5417952,N,12659.6102926,E,1.168,83.46,240822,,,R,V*2F
$GNGGA,022447.40,3733.5417952,N,12659.6102926,E,4,12,0.50,48.942,M,18.476,M,0.4,0020*59
$GNHDT,176.458,T*22
$GNRMC,022447.60,A,3733.5417955,N,12659.6103739,E,1.159,90.39,240822,,,R,V*23
$GNGGA,022447.60,3733.5417955,N,12659.6103739,E,4,12,0.54,48.939,M,18.476,M,0.6,0020*57
$GNHDT,176.185,T*27
$GNRMC,022447.80,A,3733.5418005,N,12659.6104659,E,1.251,84.59,240822,,,R,V*26
$GNGGA,022447.80,3733.5418005,N,12659.6104659,E,4,12,0.54,48.940,M,18.476,M,0.8,0020*5A
$GNHDT,176.056,T*28
$GNRMC,022448.00,A,3733.5418071,N,12659.6105479,E,1.253,88.66,240822,,,R,V*21
$GNGGA,022448.00,3733.5418071,N,12659.6105479,E,4,12,0.54,48.940,M,18.476,M,1.0,0020*56
$GNHDT,176.001,T*2A
$GNRMC,022448.20,A,3733.5418122,N,12659.6106364,E,1.258,86.06,240822,,,R,V*2F
$GNGGA,022448.20,3733.5418122,N,12659.6106364,E,4,12,0.54,48.935,M,18.476,M,0.2,0020*5A
$GNHDT,176.011,T*2B
$GNRMC,022448.40,A,3733.5418188,N,12659.6107162,E,1.126,84.30,240822,,,R,V*21
$GNGGA,022448.40,3733.5418188,N,12659.6107162,E,4,12,0.50,48.926,M,18.476,M,0.4,0020*59
$GNHDT,176.622,T*2D
$GNRMC,022448.60,A,3733.5418212,N,12659.6107955,E,1.118,82.83,240822,,,R,V*2C
$GNGGA,022448.60,3733.5418212,N,12659.6107955,E,4,12,0.50,48.921,M,18.476,M,0.6,0020*52
$GNHDT,177.639,T*26
$GNRMC,022448.80,A,3733.5418295,N,12659.6108808,E,1.279,88.13,240822,,,R,V*2C
$GNGGA,022448.80,3733.5418295,N,12659.6108808,E,4,12,0.50,48.927,M,18.476,M,0.8,0020*5D
$GNHDT,177.885,T*2F
$GNRMC,022449.00,A,3733.5418380,N,12659.6109736,E,1.307,85.22,240822,,,R,V*24
$GNGGA,022449.00,3733.5418380,N,12659.6109736,E,4,12,0.50,48.941,M,18.476,M,1.0,0020*5B
$GNHDT,177.914,T*26
$GNRMC,022449.20,A,3733.5418412,N,12659.6110657,E,1.328,89.62,240822,,,R,V*21
$GNGGA,022449.20,3733.5418412,N,12659.6110657,E,4,12,0.50,48.944,M,18.476,M,1.2,0020*5C
$GNHDT,178.123,T*25
$GNRMC,022449.40,A,3733.5418439,N,12659.6111565,E,1.273,84.85,240822,,,R,V*26
$GNGGA,022449.40,3733.5418439,N,12659.6111565,E,4,12,0.54,48.945,M,18.476,M,0.4,0020*52
$GNHDT,178.154,T*25
$GNRMC,022449.60,A,3733.5418396,N,12659.6112510,E,1.269,88.34,240822,,,R,V*2A
$GNGGA,022449.60,3733.5418396,N,12659.6112510,E,4,12,0.54,48.935,M,18.476,M,0.6,0020*56
$GNHDT,178.406,T*27
$GNRMC,022449.80,A,3733.5418407,N,12659.6113430,E,1.357,87.70,240822,,,R,V*2A
$GNGGA,022449.80,3733.5418407,N,12659.6113430,E,4,12,0.54,48.938,M,18.476,M,0.8,0020*56
$GNHDT,177.709,T*24
$GNRMC,022450.00,A,3733.5418442,N,12659.6114403,E,1.358,87.93,240822,,,R,V*2E
$GNGGA,022450.00,3733.5418442,N,12659.6114403,E,4,12,0.54,48.943,M,18.476,M,1.0,0020*55
$GNHDT,177.467,T*2F
$GNRMC,022450.20,A,3733.5418422,N,12659.6115412,E,1.411,87.56,240822,,,R,V*28
$GNGGA,022450.20,3733.5418422,N,12659.6115412,E,4,12,0.54,48.936,M,18.476,M,1.2,0020*50
$GNHDT,177.564,T*2D
$GNRMC,022450.40,A,3733.5418470,N,12659.6116391,E,1.372,86.53,240822,,,R,V*20
$GNGGA,022450.40,3733.5418470,N,12659.6116391,E,4,12,0.54,48.936,M,18.476,M,0.4,0020*59
$GNHDT,177.864,T*20
$GNRMC,022450.60,A,3733.5418537,N,12659.6117336,E,1.424,85.64,240822,,,R,V*2F
$GNGGA,022450.60,3733.5418537,N,12659.6117336,E,4,12,0.54,48.930,M,18.476,M,0.6,0020*51
$GNHDT,177.887,T*2D
$GNRMC,022450.80,A,3733.5418551,N,12659.6118387,E,1.482,88.09,240822,,,R,V*2E
$GNGGA,022450.80,3733.5418551,N,12659.6118387,E,4,12,0.56,48.929,M,18.476,M,0.8,0020*5E
$GNHDT,177.579,T*21
$GNRMC,022451.00,A,3733.5418607,N,12659.6119438,E,1.484,87.40,240822,,,R,V*21
$GNGGA,022451.00,3733.5418607,N,12659.6119438,E,4,12,0.56,48.921,M,18.476,M,1.0,0020*54
$GNHDT,177.327,T*2C
$GNRMC,022451.20,A,3733.5418724,N,12659.6120499,E,1.555,85.17,240822,,,R,V*2F
$GNGGA,022451.20,3733.5418724,N,12659.6120499,E,4,12,0.54,48.925,M,18.476,M,0.2,0020*52
$GNHDT,176.818,T*2A
$GNRMC,022451.40,A,3733.5418787,N,12659.6121523,E,1.527,87.75,240822,,,R,V*22
$GNGGA,022451.40,3733.5418787,N,12659.6121523,E,4,12,0.58,48.918,M,18.476,M,0.4,0020*58
$GNHDT,177.079,T*24
$GNRMC,022451.60,A,3733.5418769,N,12659.6122606,E,1.503,86.57,240822,,,R,V*20
$GNGGA,022451.60,3733.5418769,N,12659.6122606,E,4,12,0.55,48.924,M,18.476,M,0.6,0020*5D
$GNHDT,177.556,T*2C
$GNRMC,022451.80,A,3733.5418782,N,12659.6123640,E,1.383,85.00,240822,,,R,V*27
$GNGGA,022451.80,3733.5418782,N,12659.6123640,E,4,12,0.58,48.923,M,18.476,M,0.8,0020*51
$GNHDT,177.794,T*20
$GNRMC,022452.00,A,3733.5418737,N,12659.6124642,E,1.442,85.05,240822,,,R,V*28
$GNGGA,022452.00,3733.5418737,N,12659.6124642,E,4,12,0.55,48.918,M,18.476,M,1.0,0020*5D
$GNHDT,177.741,T*28
$GNRMC,022452.20,A,3733.5418753,N,12659.6125636,E,1.454,92.94,240822,,,R,V*23
$GNGGA,022452.20,3733.5418753,N,12659.6125636,E,4,12,0.58,48.932,M,18.476,M,0.2,0020*59
$GNHDT,177.463,T*2B
$GNRMC,022452.40,A,3733.5418829,N,12659.6126564,E,1.338,86.05,240822,,,R,V*20
$GNGGA,022452.40,3733.5418829,N,12659.6126564,E,4,12,0.58,48.935,M,18.476,M,0.4,0020*5B
$GNHDT,177.505,T*2A
$GNRMC,022452.60,A,3733.5418770,N,12659.6127619,E,1.426,92.41,240822,,,R,V*24
$GNGGA,022452.60,3733.5418770,N,12659.6127619,E,4,12,0.55,48.921,M,18.476,M,0.6,0020*58
$GNHDT,176.947,T*21
$GNRMC,022452.80,A,3733.5418816,N,12659.6128618,E,1.375,85.31,240822,,,R,V*2B
$GNGGA,022452.80,3733.5418816,N,12659.6128618,E,4,12,0.55,48.921,M,18.476,M,0.8,0020*59
$GNHDT,177.178,T*24
$GNRMC,022453.00,A,3733.5418866,N,12659.6129520,E,1.304,85.75,240822,,,R,V*2A
$GNGGA,022453.00,3733.5418866,N,12659.6129520,E,4,12,0.58,48.918,M,18.476,M,1.0,0020*50
$GNHDT,177.117,T*2D
$GNRMC,022453.20,A,3733.5418858,N,12659.6130472,E,1.342,89.17,240822,,,R,V*21
$GNGGA,022453.20,3733.5418858,N,12659.6130472,E,4,12,0.58,48.909,M,18.476,M,1.2,0020*53
$GNHDT,176.925,T*25
$GNRMC,022453.40,A,3733.5418908,N,12659.6131357,E,1.229,82.89,240822,,,R,V*22
$GNGGA,022453.40,3733.5418908,N,12659.6131357,E,4,12,0.55,48.902,M,18.476,M,1.4,0020*50
$GNHDT,177.073,T*2E
$GNRMC,022453.60,A,3733.5418945,N,12659.6132317,E,1.337,85.58,240822,,,R,V*2B
$GNGGA,022453.60,3733.5418945,N,12659.6132317,E,4,12,0.55,48.898,M,18.476,M,0.6,0020*5D
$GNHDT,177.086,T*24
$GNRMC,022453.80,A,3733.5418948,N,12659.6133206,E,1.309,89.91,240822,,,R,V*2C
$GNGGA,022453.80,3733.5418948,N,12659.6133206,E,4,12,0.55,48.886,M,18.476,M,0.8,0020*5F
$GNHDT,176.794,T*21
$GNRMC,022454.00,A,3733.5418955,N,12659.6134180,E,1.347,85.78,240822,,,R,V*24
$GNGGA,022454.00,3733.5418955,N,12659.6134180,E,4,12,0.55,48.894,M,18.476,M,1.0,0020*5C
$GNHDT,176.129,T*21
$GNRMC,022454.20,A,3733.5418982,N,12659.6135088,E,1.316,89.63,240822,,,R,V*26
$GNGGA,022454.20,3733.5418982,N,12659.6135088,E,4,12,0.55,48.887,M,18.476,M,1.2,0020*5C
$GNHDT,176.216,T*2E
$GNRMC,022454.40,A,3733.5419222,N,12659.6136034,E,1.404,82.85,240822,,,R,V*23
$GNGGA,022454.40,3733.5419222,N,12659.6136034,E,4,12,0.56,48.910,M,18.476,M,0.4,0020*55
$GNHDT,176.228,T*23
$GNRMC,022454.60,A,3733.5419153,N,12659.6136948,E,1.344,83.66,240822,,,R,V*29
$GNGGA,022454.60,3733.5419153,N,12659.6136948,E,4,12,0.57,48.910,M,18.476,M,0.6,0020*53
$GNHDT,176.090,T*22
$GNRMC,022454.80,A,3733.5419224,N,12659.6137834,E,1.248,88.98,240822,,,R,V*28
$GNGGA,022454.80,3733.5419224,N,12659.6137834,E,4,12,0.57,48.922,M,18.476,M,0.8,0020*5A
$GNHDT,176.052,T*2C
$GNRMC,022455.00,A,3733.5419230,N,12659.6138714,E,1.265,85.83,240822,,,R,V*2E
$GNGGA,022455.00,3733.5419230,N,12659.6138714,E,4,12,0.55,48.917,M,18.476,M,1.0,0020*59
$GNHDT,175.876,T*21
$GNRMC,022455.20,A,3733.5419269,N,12659.6139539,E,1.149,86.97,240822,,,R,V*27
$GNGGA,022455.20,3733.5419269,N,12659.6139539,E,4,12,0.55,48.918,M,18.476,M,1.2,0020*56
$GNHDT,175.902,T*23
$GNRMC,022455.40,A,3733.5419365,N,12659.6140303,E,1.133,84.69,240822,,,R,V*23
$GNGGA,022455.40,3733.5419365,N,12659.6140303,E,4,12,0.55,48.922,M,18.476,M,1.4,0020*53
$GNHDT,175.943,T*26
$GNRMC,022455.60,A,3733.5419359,N,12659.6141191,E,1.233,86.72,240822,,,R,V*2D
$GNGGA,022455.60,3733.5419359,N,12659.6141191,E,4,12,0.57,48.916,M,18.476,M,0.6,0020*50
$GNHDT,175.974,T*22
$GNRMC,022455.80,A,3733.5419447,N,12659.6142000,E,1.140,84.65,240822,,,R,V*22
$GNGGA,022455.80,3733.5419447,N,12659.6142000,E,4,12,0.57,48.917,M,18.476,M,0.8,0020*53
$GNHDT,176.295,T*25
$GNRMC,022456.00,A,3733.5419503,N,12659.6142797,E,1.174,87.76,240822,,,R,V*27
$GNGGA,022456.00,3733.5419503,N,12659.6142797,E,4,12,0.55,48.921,M,18.476,M,1.0,0020*5E
$GNHDT,176.746,T*2E
$GNRMC,022456.20,A,3733.5419537,N,12659.6143706,E,1.341,86.93,240822,,,R,V*25
$GNGGA,022456.20,3733.5419537,N,12659.6143706,E,4,12,0.58,48.930,M,18.476,M,1.2,0020*5D
$GNHDT,176.244,T*29
$GNRMC,022456.40,A,3733.5419569,N,12659.6144672,E,1.318,86.99,240822,,,R,V*2B
$GNGGA,022456.40,3733.5419569,N,12659.6144672,E,4,12,0.56,48.929,M,18.476,M,0.4,0020*54
$GNHDT,176.139,T*20
$GNRMC,022456.60,A,3733.5419626,N,12659.6145502,E,1.222,83.05,240822,,,R,V*2C
$GNGGA,022456.60,3733.5419626,N,12659.6145502,E,4,12,0.56,48.932,M,18.476,M,0.6,0020*53
$GNHDT,176.185,T*27
$GNRMC,022456.80,A,3733.5419753,N,12659.6146290,E,1.137,82.90,240822,,,R,V*24
$GNGGA,022456.80,3733.5419753,N,12659.6146290,E,4,12,0.55,48.932,M,18.476,M,0.8,0020*5C
$GNHDT,176.503,T*2D
$GNRMC,022457.00,A,3733.5419763,N,12659.6147145,E,1.190,85.26,240822,,,R,V*23
$GNGGA,022457.00,3733.5419763,N,12659.6147145,E,4,12,0.55,48.927,M,18.476,M,1.0,0020*51
$GNHDT,176.506,T*28
$GNRMC,022457.20,A,3733.5419708,N,12659.6148074,E,1.352,94.73,240822,,,R,V*2C
$GNGGA,022457.20,3733.5419708,N,12659.6148074,E,4,12,0.55,48.919,M,18.476,M,0.2,0020*5C
$GNHDT,176.094,T*26
$GNRMC,022457.40,A,3733.5419714,N,12659.6149063,E,1.373,83.42,240822,,,R,V*27
$GNGGA,022457.40,3733.5419714,N,12659.6149063,E,4,12,0.55,48.934,M,18.476,M,0.4,0020*59
$GNHDT,175.538,T*26
$GNRMC,022457.60,A,3733.5419847,N,12659.6149937,E,1.311,92.17,240822,,,R,V*20
$GNGGA,022457.60,3733.5419847,N,12659.6149937,E,4,12,0.55,48.947,M,18.476,M,0.6,0020*5C
$GNHDT,175.012,T*2B
$GNRMC,022457.80,A,3733.5419735,N,12659.6150808,E,1.221,81.43,240822,,,R,V*20
$GNGGA,022457.80,3733.5419735,N,12659.6150808,E,4,12,0.62,48.934,M,18.476,M,0.8,0020*53
$GNHDT,175.106,T*2F
$GNRMC,022458.00,A,3733.5419811,N,12659.6151554,E,1.068,85.82,240822,,,R,V*2D
$GNGGA,022458.00,3733.5419811,N,12659.6151554,E,4,12,0.71,48.920,M,18.476,M,1.0,0020*56
$GNHDT,175.798,T*2E
$GNRMC,022458.20,A,3733.5419847,N,12659.6152330,E,1.052,87.67,240822,,,R,V*2B
$GNGGA,022458.20,3733.5419847,N,12659.6152330,E,4,12,0.55,48.911,M,18.476,M,1.2,0020*56
$GNHDT,176.592,T*25
$GNRMC,022458.40,A,3733.5419877,N,12659.6153124,E,1.188,88.18,240822,,,R,V*29
$GNGGA,022458.40,3733.5419877,N,12659.6153124,E,4,12,0.53,48.917,M,18.476,M,0.4,0020*52
$GNHDT,177.220,T*2A
$GNRMC,022458.60,A,3733.5419887,N,12659.6153964,E,1.177,85.24,240822,,,R,V*2A
$GNGGA,022458.60,3733.5419887,N,12659.6153964,E,4,12,0.53,48.919,M,18.476,M,0.6,0020*5F
$GNHDT,177.795,T*21
$GNRMC,022458.80,A,3733.5419961,N,12659.6154859,E,1.309,81.64,240822,,,R,V*2E
$GNGGA,022458.80,3733.5419961,N,12659.6154859,E,4,12,0.53,48.922,M,18.476,M,0.8,0020*56
$GNHDT,177.898,T*23
$GNRMC,022459.00,A,3733.5419864,N,12659.6155809,E,1.365,94.65,240822,,,R,V*28
$GNGGA,022459.00,3733.5419864,N,12659.6155809,E,4,12,0.52,48.901,M,18.476,M,1.0,0020*56
$GNHDT,178.355,T*26
$GNRMC,022459.20,A,3733.5419797,N,12659.6156685,E,1.216,80.42,240822,,,R,V*25
$GNGGA,022459.20,3733.5419797,N,12659.6156685,E,4,12,0.64,48.901,M,18.476,M,0.2,0020*58
$GNHDT,178.983,T*27
$GNRMC,022459.40,A,3733.5419913,N,12659.6157482,E,1.183,89.65,240822,,,R,V*26
$GNGGA,022459.40,3733.5419913,N,12659.6157482,E,4,12,0.62,48.912,M,18.476,M,0.4,0020*5A
$GNHDT,180.566,T*27
$GNRMC,022459.60,A,3733.5420015,N,12659.6158195,E,1.053,86.57,240822,,,R,V*2F
$GNGGA,022459.60,3733.5420015,N,12659.6158195,E,4,12,0.61,48.935,M,18.476,M,0.6,0020*55
$GNHDT,182.287,T*2D
$GNRMC,022459.80,A,3733.5420031,N,12659.6159036,E,1.190,89.27,240822,,,R,V*28
$GNGGA,022459.80,3733.5420031,N,12659.6159036,E,4,12,0.58,48.931,M,18.476,M,0.8,0020*54
$GNHDT,183.164,T*22
$GNRMC,022500.00,A,3733.5419976,N,12659.6159923,E,1.238,90.52,240822,,,R,V*2B
$GNGGA,022500.00,3733.5419976,N,12659.6159923,E,4,12,0.59,48.936,M,18.476,M,1.0,0020*53
$GNHDT,182.767,T*26
$GNRMC,022500.20,A,3733.5419946,N,12659.6160817,E,1.279,94.30,240822,,,R,V*23
$GNGGA,022500.20,3733.5419946,N,12659.6160817,E,4,12,0.63,48.936,M,18.476,M,0.2,0020*54
$GNHDT,181.883,T*20
$GNRMC,022500.40,A,3733.5419803,N,12659.6161743,E,1.291,96.34,240822,,,R,V*2A
$GNGGA,022500.40,3733.5419803,N,12659.6161743,E,4,12,0.61,48.928,M,18.476,M,0.4,0020*56
$GNHDT,180.208,T*28
$GNRMC,022500.60,A,3733.5419820,N,12659.6162623,E,1.341,96.87,240822,,,R,V*29
$GNGGA,022500.60,3733.5419820,N,12659.6162623,E,4,12,0.62,48.927,M,18.476,M,0.6,0020*5F
$GNHDT,179.348,T*2B
$GNRMC,022500.80,A,3733.5419767,N,12659.6163460,E,1.194,95.69,240822,,,R,V*26
$GNGGA,022500.80,3733.5419767,N,12659.6163460,E,4,12,0.57,48.914,M,18.476,M,0.8,0020*51
$GNHDT,178.765,T*21
$GNRMC,022501.00,A,3733.5419717,N,12659.6164303,E,1.200,96.41,240822,,,R,V*2A
$GNGGA,022501.00,3733.5419717,N,12659.6164303,E,4,12,0.56,48.933,M,18.476,M,1.0,0020*57
$GNHDT,177.859,T*2E
$GNRMC,022501.20,A,3733.5419752,N,12659.6165114,E,1.195,92.70,240822,,,R,V*25
$GNGGA,022501.20,3733.5419752,N,12659.6165114,E,4,12,0.56,48.934,M,18.476,M,0.2,0020*55
$GNHDT,176.637,T*29
$GNRMC,022501.40,A,3733.5419709,N,12659.6165972,E,1.201,86.04,240822,,,R,V*2D
$GNGGA,022501.40,3733.5419709,N,12659.6165972,E,4,12,0.59,48.918,M,18.476,M,0.4,0020*52
$GNHDT,175.998,T*20
$GNRMC,022501.60,A,3733.5419872,N,12659.6166714,E,1.066,90.29,240822,,,R,V*2A
$GNGGA,022501.60,3733.5419872,N,12659.6166714,E,4,12,0.58,48.929,M,18.476,M,0.6,0020*5F
$GNHDT,176.000,T*2B
$GNRMC,022501.80,A,3733.5419961,N,12659.6167434,E,1.038,85.73,240822,,,R,V*27
$GNGGA,022501.80,3733.5419961,N,12659.6167434,E,4,12,0.55,48.939,M,18.476,M,0.8,0020*50
$GNHDT,175.959,T*2D
$GNRMC,022502.00,A,3733.5419933,N,12659.6168116,E,0.995,80.42,240822,,,R,V*29
$GNGGA,022502.00,3733.5419933,N,12659.6168116,E,4,12,0.56,48.927,M,18.476,M,1.0,0020*53
$GNHDT,175.891,T*28
$GNRMC,022502.20,A,3733.5419921,N,12659.6168978,E,1.193,90.88,240822,,,R,V*20
$GNGGA,022502.20,3733.5419921,N,12659.6168978,E,4,12,0.58,48.917,M,18.476,M,0.2,0020*5C
$GNHDT,175.365,T*28
$GNRMC,022502.40,A,3733.5419912,N,12659.6169780,E,1.151,94.31,240822,,,R,V*26
$GNGGA,022502.40,3733.5419912,N,12659.6169780,E,4,12,0.56,48.919,M,18.476,M,0.4,0020*54
$GNHDT,175.263,T*2F
$GNRMC,022502.60,A,3733.5419917,N,12659.6170576,E,1.159,89.16,240822,,,R,V*23
$GNGGA,022502.60,3733.5419917,N,12659.6170576,E,4,12,0.56,48.913,M,18.476,M,0.6,0020*58
$GNHDT,175.027,T*2D
$GNRMC,022502.80,A,3733.5419927,N,12659.6171454,E,1.236,92.03,240822,,,R,V*2A
$GNGGA,022502.80,3733.5419927,N,12659.6171454,E,4,12,0.58,48.903,M,18.476,M,0.8,0020*54
$GNHDT,174.203,T*28
$GNRMC,022503.00,A,3733.5419906,N,12659.6172346,E,1.268,92.12,240822,,,R,V*2C
$GNGGA,022503.00,3733.5419906,N,12659.6172346,E,4,12,0.58,48.895,M,18.476,M,1.0,0020*5E
$GNHDT,173.679,T*26
$GNRMC,022503.20,A,3733.5420046,N,12659.6173158,E,1.210,84.76,240822,,,R,V*2F
$GNGGA,022503.20,3733.5420046,N,12659.6173158,E,4,12,0.58,48.906,M,18.476,M,1.2,0020*5E
$GNHDT,173.739,T*23
$GNRMC,022503.40,A,3733.5420132,N,12659.6173935,E,1.137,80.80,240822,,,R,V*23
$GNGGA,022503.40,3733.5420132,N,12659.6173935,E,4,12,0.58,48.900,M,18.476,M,0.4,0020*58
$GNHDT,174.380,T*22
$GNRMC,022503.60,A,3733.5420267,N,12659.6174543,E,0.972,84.41,240822,,,R,V*29
$GNGGA,022503.60,3733.5420267,N,12659.6174543,E,4,12,0.59,48.917,M,18.476,M,0.6,0020*56
$GNHDT,175.580,T*25
$GNRMC,022503.80,A,3733.5420324,N,12659.6175165,E,0.785,79.97,240822,,,R,V*2F
$GNGGA,022503.80,3733.5420324,N,12659.6175165,E,4,12,0.59,48.907,M,18.476,M,0.8,0020*50
$GNRMC,022504.00,A,3733.5420440,N,12659.6175890,E,1.064,81.88,240822,,,R,V*26
$GNGGA,022504.00,3733.5420440,N,12659.6175890,E,4,12,0.57,48.919,M,18.476,M,1.0,0020*51
$GNHDT,177.478,T*21
$GNRMC,022504.20,A,3733.5420479,N,12659.6176652,E,1.134,86.54,240822,,,R,V*2F
$GNGGA,022504.20,3733.5420479,N,12659.6176652,E,4,12,0.55,48.929,M,18.476,M,0.2,0020*58
$GNHDT,177.908,T*2B
$GNRMC,022504.40,A,3733.5420522,N,12659.6177547,E,1.267,86.71,240822,,,R,V*22
$GNGGA,022504.40,3733.5420522,N,12659.6177547,E,4,12,0.56,48.958,M,18.476,M,0.4,0020*54
$GNHDT,177.726,T*29
$GNRMC,022504.60,A,3733.5420516,N,12659.6178544,E,1.283,89.34,240822,,,R,V*2F
$GNGGA,022504.60,3733.5420516,N,12659.6178544,E,4,12,0.56,48.936,M,18.476,M,0.6,0020*57
$GNHDT,177.248,T*24
$GNRMC,022504.80,A,3733.5420528,N,12659.6179443,E,1.392,90.50,240822,,,R,V*20
$GNGGA,022504.80,3733.5420528,N,12659.6179443,E,4,12,0.56,48.941,M,18.476,M,0.8,0020*5D
$GNHDT,176.925,T*25
$GNRMC,022505.00,A,3733.5420621,N,12659.6180374,E,1.333,90.43,240822,,,R,V*2F
$GNGGA,022505.00,3733.5420621,N,12659.6180374,E,4,12,0.56,48.950,M,18.476,M,1.0,0020*52
$GNHDT,176.946,T*20
$GNRMC,022505.20,A,3733.5420577,N,12659.6181321,E,1.317,83.69,240822,,,R,V*20
$GNGGA,022505.20,3733.5420577,N,12659.6181321,E,4,12,0.60,48.943,M,18.476,M,1.2,0020*54
$GNHDT,176.772,T*29
$GNRMC,022505.40,A,3733.5420578,N,12659.6182311,E,1.408,90.99,240822,,,R,V*2D
$GNGGA,022505.40,3733.5420578,N,12659.6182311,E,4,12,0.63,48.931,M,18.476,M,0.4,0020*5C
$GNHDT,176.628,T*27
$GNRMC,022505.60,A,3733.5420633,N,12659.6183251,E,1.352,87.30,240822,,,R,V*2A
$GNGGA,022505.60,3733.5420633,N,12659.6183251,E,4,12,0.60,48.941,M,18.476,M,0.6,0020*50
$GNHDT,176.987,T*2D
$GNRMC,022505.80,A,3733.5420685,N,12659.6184088,E,1.240,85.13,240822,,,R,V*29
$GNGGA,022505.80,3733.5420685,N,12659.6184088,E,4,12,0.59,48.931,M,18.476,M,0.8,0020*51
$GNHDT,177.873,T*26
$GNRMC,022506.00,A,3733.5420732,N,12659.6185032,E,1.304,85.77,240822,,,R,V*2C
$GNGGA,022506.00,3733.5420732,N,12659.6185032,E,4,12,0.56,48.922,M,18.476,M,1.0,0020*53
$GNHDT,177.803,T*21
$GNRMC,022506.20,A,3733.5420789,N,12659.6185956,E,1.391,94.59,240822,,,R,V*25
$GNGGA,022506.20,3733.5420789,N,12659.6185956,E,4,12,0.56,48.953,M,18.476,M,1.2,0020*5E
$GNHDT,177.637,T*28
$GNRMC,022506.40,A,3733.5420876,N,12659.6186841,E,1.267,86.17,240822,,,R,V*29
$GNGGA,022506.40,3733.5420876,N,12659.6186841,E,4,12,0.62,48.970,M,18.476,M,0.4,0020*52
$GNHDT,177.208,T*20
$GNRMC,022506.60,A,3733.5420820,N,12659.6187833,E,1.394,85.08,240822,,,R,V*2C
$GNGGA,022506.60,3733.5420820,N,12659.6187833,E,4,12,0.52,48.959,M,18.476,M,0.6,0020*5D
$GNHDT,176.441,T*2A
$GNRMC,022506.80,A,3733.5420881,N,12659.6188740,E,1.276,85.70,240822,,,R,V*2F
$GNGGA,022506.80,3733.5420881,N,12659.6188740,E,4,12,0.52,48.962,M,18.476,M,0.8,0020*5A
$GNHDT,176.537,T*2A
$GNRMC,022507.00,A,3733.5420903,N,12659.6189603,E,1.232,87.37,240822,,,R,V*2B
$GNGGA,022507.00,3733.5420903,N,12659.6189603,E,4,12,0.53,48.958,M,18.476,M,1.0,0020*5E
$GNHDT,176.408,T*27
$GNRMC,022507.20,A,3733.5420903,N,12659.6190511,E,1.247,89.91,240822,,,R,V*21
$GNGGA,022507.20,3733.5420903,N,12659.6190511,E,4,12,0.62,48.941,M,18.476,M,1.2,0020*5C
$GNHDT,176.536,T*2B
$GNRMC,022507.40,A,3733.5421000,N,12659.6191362,E,1.210,83.06,240822,,,R,V*29
$GNGGA,022507.40,3733.5421000,N,12659.6191362,E,4,12,0.58,48.943,M,18.476,M,0.4,0020*5E
$GNHDT,176.987,T*2D
$GNRMC,022507.60,A,3733.5421098,N,12659.6192179,E,1.302,88.07,240822,,,R,V*29
$GNGGA,022507.60,3733.5421098,N,12659.6192179,E,4,12,0.56,48.970,M,18.476,M,0.6,0020*5A
$GNHDT,176.885,T*2E
$GNRMC,022507.80,A,3733.5421108,N,12659.6192968,E,1.125,85.01,240822,,,R,V*2B
$GNGGA,022507.80,3733.5421108,N,12659.6192968,E,4,12,0.56,48.977,M,18.476,M,0.8,0020*5D
$GNHDT,177.316,T*2E
$GNRMC,022508.00,A,3733.5421183,N,12659.6193734,E,1.068,82.29,240822,,,R,V*2C
$GNGGA,022508.00,3733.5421183,N,12659.6193734,E,4,12,0.52,48.979,M,18.476,M,1.0,0020*5C
$GNHDT,177.581,T*26
$GNRMC,022508.20,A,3733.5421230,N,12659.6194519,E,1.111,83.49,240822,,,R,V*27
$GNGGA,022508.20,3733.5421230,N,12659.6194519,E,4,12,0.52,48.979,M,18.476,M,0.2,0020*5C
$GNHDT,178.179,T*2A
$GNRMC,022508.40,A,3733.5421211,N,12659.6195408,E,1.187,89.02,240822,,,R,V*28
$GNGGA,022508.40,3733.5421211,N,12659.6195408,E,4,12,0.52,48.969,M,18.476,M,0.4,0020*5E
$GNHDT,178.324,T*20
$GNRMC,022508.60,A,3733.5421181,N,12659.6196310,E,1.315,91.10,240822,,,R,V*2E
$GNGGA,022508.60,3733.5421181,N,12659.6196310,E,4,12,0.52,48.972,M,18.476,M,0.6,0020*53
$GNHDT,177.758,T*20
$GNRMC,022508.80,A,3733.5421210,N,12659.6197206,E,1.288,92.78,240822,,,R,V*24
$GNGGA,022508.80,3733.5421210,N,12659.6197206,E,4,12,0.56,48.984,M,18.476,M,0.8,0020*52
$GNHDT,177.334,T*2E
$GNRMC,022509.00,A,3733.5421356,N,12659.6198005,E,1.151,83.14,240822,,,R,V*2D
$GNGGA,022509.00,3733.5421356,N,12659.6198005,E,4,12,0.52,48.998,M,18.476,M,1.0,0020*56
$GNHDT,177.499,T*2E
$GNRMC,022509.20,A,3733.5421342,N,12659.6198855,E,1.170,87.00,240822,,,R,V*25
$GNGGA,022509.20,3733.5421342,N,12659.6198855,E,4,12,0.52,48.986,M,18.476,M,1.2,0020*51
$GNHDT,177.560,T*29
$GNRMC,022509.40,A,3733.5421379,N,12659.6199655,E,1.136,89.42,240822,,,R,V*2E
$GNGGA,022509.40,3733.5421379,N,12659.6199655,E,4,12,0.52,48.997,M,18.476,M,1.4,0020*56
$GNHDT,177.489,T*2F
$GNRMC,022509.60,A,3733.5421408,N,12659.6200432,E,1.151,89.62,240822,,,R,V*2E
$GNGGA,022509.60,3733.5421408,N,12659.6200432,E,4,12,0.52,48.987,M,18.476,M,0.6,0020*57
$GNHDT,177.689,T*2D
$GNRMC,022509.80,A,3733.5421394,N,12659.6201267,E,1.175,85.48,240822,,,R,V*27
$GNGGA,022509.80,3733.5421394,N,12659.6201267,E,4,12,0.55,48.987,M,18.476,M,0.8,0020*55
$GNHDT,177.756,T*2E
$GNRMC,022510.00,A,3733.5421283,N,12659.6202125,E,1.186,92.58,240822,,,R,V*2D
$GNGGA,022510.00,3733.5421283,N,12659.6202125,E,4,12,0.59,48.979,M,18.476,M,1.0,0020*50
$GNHDT,177.555,T*2F
$GNRMC,022510.20,A,3733.5421249,N,12659.6202876,E,1.061,90.63,240822,,,R,V*24
$GNGGA,022510.20,3733.5421249,N,12659.6202876,E,4,12,0.63,48.982,M,18.476,M,1.2,0020*54
$GNHDT,177.644,T*2C
$GNRMC,022510.40,A,3733.5421278,N,12659.6203625,E,1.133,81.51,240822,,,R,V*2E
$GNGGA,022510.40,3733.5421278,N,12659.6203625,E,4,12,0.60,48.965,M,18.476,M,0.4,0020*54
$GNHDT,178.479,T*2F
$GNRMC,022510.60,A,3733.5421429,N,12659.6204340,E,0.967,81.64,240822,,,R,V*21
$GNGGA,022510.60,3733.5421429,N,12659.6204340,E,4,12,0.60,48.974,M,18.476,M,0.6,0020*57
$GNHDT,179.210,T*27
$GNRMC,022510.80,A,3733.5421534,N,12659.6205132,E,1.114,84.55,240822,,,R,V*2E
$GNGGA,022510.80,3733.5421534,N,12659.6205132,E,4,12,0.58,48.980,M,18.476,M,0.8,0020*5C
$GNHDT,179.777,T*23
$GNRMC,022511.00,A,3733.5421579,N,12659.6205901,E,1.058,89.09,240822,,,R,V*2B
$GNGGA,022511.00,3733.5421579,N,12659.6205901,E,4,12,0.57,48.993,M,18.476,M,1.0,0020*50
$GNHDT,180.190,T*2A
$GNRMC,022511.20,A,3733.5421579,N,12659.6206739,E,1.187,84.16,240822,,,R,V*2F
$GNGGA,022511.20,3733.5421579,N,12659.6206739,E,4,12,0.57,48.989,M,18.476,M,1.2,0020*5D
$GNHDT,180.299,T*20
$GNRMC,022511.40,A,3733.5421659,N,12659.6207573,E,1.152,90.09,240822,,,R,V*26
$GNGGA,022511.40,3733.5421659,N,12659.6207573,E,4,12,0.57,49.006,M,18.476,M,0.4,0020*5F
$GNHDT,180.272,T*25
$GNRMC,022511.60,A,3733.5421618,N,12659.6208403,E,1.220,90.62,240822,,,R,V*23
$GNGGA,022511.60,3733.5421618,N,12659.6208403,E,4,12,0.60,49.000,M,18.476,M,0.6,0020*51
$GNHDT,180.257,T*22
$GNRMC,022511.80,A,3733.5421624,N,12659.6209390,E,1.364,92.97,240822,,,R,V*27
$GNGGA,022511.80,3733.5421624,N,12659.6209390,E,4,12,0.52,49.004,M,18.476,M,0.8,0020*57
$GNHDT,179.529,T*2A
$GNRMC,022512.00,A,3733.5421498,N,12659.6210382,E,1.437,91.10,240822,,,R,V*2F
$GNGGA,022512.00,3733.5421498,N,12659.6210382,E,4,12,0.58,48.983,M,18.476,M,1.0,0020*56
$GNHDT,179.045,T*25
$GNRMC,022512.20,A,3733.5421500,N,12659.6211413,E,1.392,91.85,240822,,,R,V*27
$GNGGA,022512.20,3733.5421500,N,12659.6211413,E,4,12,0.58,48.977,M,18.476,M,1.2,0020*53
$GNHDT,179.028,T*2E
$GNRMC,022512.40,A,3733.5421546,N,12659.6212313,E,1.291,91.42,240822,,,R,V*2E
$GNGGA,022512.40,3733.5421546,N,12659.6212313,E,4,12,0.55,48.995,M,18.476,M,0.4,0020*55
$GNHDT,179.285,T*2B
$GNRMC,022512.60,A,3733.5421533,N,12659.6213254,E,1.313,91.47,240822,,,R,V*23
$GNGGA,022512.60,3733.5421533,N,12659.6213254,E,4,12,0.56,48.998,M,18.476,M,0.6,0020*5A
$GNHDT,179.237,T*22
$GNRMC,022512.80,A,3733.5421586,N,12659.6214136,E,1.254,87.74,240822,,,R,V*26
$GNGGA,022512.80,3733.5421586,N,12659.6214136,E,4,12,0.52,49.008,M,18.476,M,0.8,0020*51
$GNHDT,179.474,T*23
$GNRMC,022513.00,A,3733.5421557,N,12659.6215077,E,1.275,87.22,240822,,,R,V*26
$GNGGA,022513.00,3733.5421557,N,12659.6215077,E,4,12,0.52,48.994,M,18.476,M,1.0,0020*55
$GNHDT,179.819,T*24
$GNRMC,022513.20,A,3733.5421615,N,12659.6216033,E,1.370,90.25,240822,,,R,V*27
$GNGGA,022513.20,3733.5421615,N,12659.6216033,E,4,12,0.52,49.004,M,18.476,M,1.2,0020*52
$GNHDT,179.622,T*22
$GNRMC,022513.40,A,3733.5421538,N,12659.6217087,E,1.489,91.86,240822,,,R,V*2A
$GNGGA,022513.40,3733.5421538,N,12659.6217087,E,4,12,0.52,48.990,M,18.476,M,0.4,0020*54
$GNHDT,178.821,T*2E
$GNRMC,022513.60,A,3733.5421604,N,12659.6217982,E,1.294,93.03,240822,,,R,V*2D
$GNGGA,022513.60,3733.5421604,N,12659.6217982,E,4,12,0.52,49.004,M,18.476,M,0.6,0020*51
$GNHDT,178.423,T*20
$GNRMC,022513.80,A,3733.5421570,N,12659.6218932,E,1.396,90.08,240822,,,R,V*2C
$GNGGA,022513.80,3733.5421570,N,12659.6218932,E,4,12,0.52,48.989,M,18.476,M,0.8,0020*58
$GNHDT,178.056,T*26
$GNRMC,022514.00,A,3733.5421595,N,12659.6219844,E,1.260,88.40,240822,,,R,V*24
$GNGGA,022514.00,3733.5421595,N,12659.6219844,E,4,12,0.52,48.985,M,18.476,M,1.0,0020*58
$GNHDT,177.708,T*25
$GNRMC,022514.20,A,3733.5421577,N,12659.6220702,E,1.220,87.82,240822,,,R,V*28
$GNGGA,022514.20,3733.5421577,N,12659.6220702,E,4,12,0.52,48.988,M,18.476,M,1.2,0020*5E
$GNHDT,178.238,T*2C
$GNRMC,022514.40,A,3733.5421593,N,12659.6221538,E,1.152,86.32,240822,,,R,V*22
$GNGGA,022514.40,3733.5421593,N,12659.6221538,E,4,12,0.52,48.974,M,18.476,M,0.4,0020*5C
$GNHDT,178.573,T*24
$GNRMC,022514.60,A,3733.5421655,N,12659.6222426,E,1.295,85.77,240822,,,R,V*2E
$GNGGA,022514.60,3733.5421655,N,12659.6222426,E,4,12,0.52,48.984,M,18.476,M,0.6,0020*57
$GNHDT,178.793,T*28
$GNRMC,022514.80,A,3733.5421674,N,12659.6223363,E,1.369,89.03,240822,,,R,V*29
$GNGGA,022514.80,3733.5421674,N,12659.6223363,E,4,12,0.52,48.990,M,18.476,M,0.8,0020*56
$GNHDT,179.022,T*24
$GNRMC,022515.00,A,3733.5421739,N,12659.6224257,E,1.260,88.67,240822,,,R,V*22
$GNGGA,022515.00,3733.5421739,N,12659.6224257,E,4,12,0.52,49.011,M,18.476,M,1.0,0020*5E
$GNHDT,179.523,T*20
$GNRMC,022515.20,A,3733.5421683,N,12659.6225118,E,1.263,90.33,240822,,,R,V*22
$GNGGA,022515.20,3733.5421683,N,12659.6225118,E,4,12,0.52,49.009,M,18.476,M,0.2,0020*5F
$GNHDT,179.520,T*23
$GNRMC,022515.40,A,3733.5421703,N,12659.6225990,E,1.304,89.52,240822,,,R,V*2A
$GNGGA,022515.40,3733.5421703,N,12659.6225990,E,4,12,0.52,49.003,M,18.476,M,0.4,0020*54
$GNHDT,179.240,T*22
$GNRMC,022515.60,A,3733.5421665,N,12659.6227042,E,1.462,93.92,240822,,,R,V*2D
$GNGGA,022515.60,3733.5421665,N,12659.6227042,E,4,12,0.52,49.025,M,18.476,M,0.6,0020*55
$GNHDT,178.079,T*2B
$GNRMC,022515.80,A,3733.5421676,N,12659.6228033,E,1.425,89.30,240822,,,R,V*28
$GNGGA,022515.80,3733.5421676,N,12659.6228033,E,4,12,0.52,49.020,M,18.476,M,0.8,0020*5B
$GNHDT,177.075,T*28
$GNRMC,022516.00,A,3733.5421746,N,12659.6228948,E,1.286,86.55,240822,,,R,V*27
$GNGGA,022516.00,3733.5421746,N,12659.6228948,E,4,12,0.55,49.029,M,18.476,M,1.0,0020*50
$GNHDT,176.759,T*20
$GNRMC,022516.20,A,3733.5421779,N,12659.6229786,E,1.129,82.70,240822,,,R,V*21
$GNGGA,022516.20,3733.5421779,N,12659.6229786,E,4,12,0.55,49.023,M,18.476,M,0.2,0020*5A
$GNHDT,177.675,T*2E
$GNRMC,022516.40,A,3733.5421815,N,12659.6230693,E,1.294,86.94,240822,,,R,V*24
$GNGGA,022516.40,3733.5421815,N,12659.6230693,E,4,12,0.55,49.016,M,18.476,M,0.4,0020*54
$GNHDT,177.991,T*2B
$GNRMC,022516.60,A,3733.5421831,N,12659.6231603,E,1.350,89.55,240822,,,R,V*23
$GNGGA,022516.60,3733.5421831,N,12659.6231603,E,4,12,0.56,49.013,M,18.476,M,0.6,0020*5C
$GNHDT,177.936,T*26
$GNRMC,022516.80,A,3733.5421883,N,12659.6232501,E,1.298,86.32,240822,,,R,V*2D
$GNGGA,022516.80,3733.5421883,N,12659.6232501,E,4,12,0.56,48.996,M,18.476,M,0.8,0020*52
$GNHDT,178.004,T*21
$GNRMC,022517.00,A,3733.5421881,N,12659.6233445,E,1.299,88.28,240822,,,R,V*22
$GNGGA,022517.00,3733.5421881,N,12659.6233445,E,4,12,0.55,49.013,M,18.476,M,1.0,0020*56
$GNHDT,178.101,T*25
$GNRMC,022517.20,A,3733.5421927,N,12659.6234288,E,1.230,86.16,240822,,,R,V*2D
$GNGGA,022517.20,3733.5421927,N,12659.6234288,E,4,12,0.55,48.994,M,18.476,M,0.2,0020*5D
$GNHDT,178.357,T*24
$GNRMC,022517.40,A,3733.5421929,N,12659.6235241,E,1.225,88.53,240822,,,R,V*2A
$GNGGA,022517.40,3733.5421929,N,12659.6235241,E,4,12,0.55,48.986,M,18.476,M,0.4,0020*54
$GNHDT,178.179,T*2A
$GNRMC,022517.60,A,3733.5421972,N,12659.6236195,E,1.357,87.43,240822,,,R,V*25
$GNGGA,022517.60,3733.5421972,N,12659.6236195,E,4,12,0.51,48.991,M,18.476,M,0.6,0020*51
$GNHDT,178.012,T*26
$GNRMC,022517.80,A,3733.5421991,N,12659.6237063,E,1.254,86.27,240822,,,R,V*2E
$GNGGA,022517.80,3733.5421991,N,12659.6237063,E,4,12,0.51,48.994,M,18.476,M,0.8,0020*50
$GNHDT,178.103,T*27
$GNRMC,022518.00,A,3733.5422018,N,12659.6237901,E,1.165,88.90,240822,,,R,V*2C
$GNGGA,022518.00,3733.5422018,N,12659.6237901,E,4,12,0.52,48.979,M,18.476,M,1.0,0020*58
$GNHDT,178.177,T*24
$GNRMC,022518.20,A,3733.5422007,N,12659.6238785,E,1.282,89.47,240822,,,R,V*2C
$GNGGA,022518.20,3733.5422007,N,12659.6238785,E,4,12,0.52,48.976,M,18.476,M,1.2,0020*54
$GNHDT,177.571,T*29
$GNRMC,022518.40,A,3733.5421996,N,12659.6239698,E,1.382,92.48,240822,,,R,V*20
$GNGGA,022518.40,3733.5421996,N,12659.6239698,E,4,12,0.52,48.989,M,18.476,M,0.4,0020*5B
$GNHDT,177.166,T*2B
$GNRMC,022518.60,A,3733.5422154,N,12659.6240680,E,1.186,82.35,240822,,,R,V*2D
$GNGGA,022518.60,3733.5422154,N,12659.6240680,E,4,12,0.52,48.993,M,18.476,M,0.6,0020*52
$GNHDT,177.073,T*2E
$GNRMC,022518.80,A,3733.5422129,N,12659.6241674,E,1.352,89.16,240822,,,R,V*22
$GNGGA,022518.80,3733.5422129,N,12659.6241674,E,4,12,0.55,48.999,M,18.476,M,0.8,0020*5F
$GNHDT,177.206,T*2E
$GNRMC,022519.00,A,3733.5422187,N,12659.6242712,E,1.546,90.82,240822,,,R,V*2B
$GNGGA,022519.00,3733.5422187,N,12659.6242712,E,4,12,0.52,49.012,M,18.476,M,1.0,0020*55
$GNHDT,176.250,T*2C
$GNRMC,022519.20,A,3733.5422192,N,12659.6243757,E,1.431,84.49,240822,,,R,V*2E
$GNGGA,022519.20,3733.5422192,N,12659.6243757,E,4,12,0.52,49.017,M,18.476,M,1.2,0020*54
$GNHDT,175.928,T*2B
$GNRMC,022519.40,A,3733.5422326,N,12659.6244628,E,1.282,83.98,240822,,,R,V*2E
$GNGGA,022519.40,3733.5422326,N,12659.6244628,E,4,12,0.55,49.022,M,18.476,M,0.4,0020*57
$GNHDT,176.660,T*2B
$GNRMC,022519.60,A,3733.5422498,N,12659.6245538,E,1.289,78.17,240822,,,R,V*25
$GNGGA,022519.60,3733.5422498,N,12659.6245538,E,4,12,0.51,49.021,M,18.476,M,0.6,0020*51
$GNHDT,178.151,T*20
$GNRMC,022519.80,A,3733.5422552,N,12659.6246456,E,1.339,84.25,240822,,,R,V*2E
$GNGGA,022519.80,3733.5422552,N,12659.6246456,E,4,12,0.52,49.026,M,18.476,M,0.8,0020*58
$GNHDT,179.077,T*24
$GNRMC,022520.00,A,3733.5422565,N,12659.6247496,E,1.506,88.13,240822,,,R,V*26
$GNGGA,022520.00,3733.5422565,N,12659.6247496,E,4,12,0.52,49.039,M,18.476,M,1.0,0020*54
$GNHDT,179.563,T*24
$GNRMC,022520.20,A,3733.5422574,N,12659.6248591,E,1.470,88.05,240822,,,R,V*2A
$GNGGA,022520.20,3733.5422574,N,12659.6248591,E,4,12,0.52,49.018,M,18.476,M,1.2,0020*5E
$GNHDT,179.383,T*2C
$GNRMC,022520.40,A,3733.5422596,N,12659.6249671,E,1.541,89.43,240822,,,R,V*2C
$GNGGA,022520.40,3733.5422596,N,12659.6249671,E,4,12,0.52,49.027,M,18.476,M,0.4,0020*53
$GNHDT,179.332,T*26
$GNRMC,022520.60,A,3733.5422654,N,12659.6250573,E,1.365,88.41,240822,,,R,V*29
$GNGGA,022520.60,3733.5422654,N,12659.6250573,E,4,12,0.52,49.041,M,18.476,M,0.6,0020*57
$GNHDT,179.902,T*2F
$GNRMC,022520.80,A,3733.5422665,N,12659.6251588,E,1.459,89.44,240822,,,R,V*2C
$GNGGA,022520.80,3733.5422665,N,12659.6251588,E,4,12,0.52,49.046,M,18.476,M,0.8,0020*57
$GNHDT,179.504,T*25
$GNRMC,022521.00,A,3733.5422645,N,12659.6252609,E,1.433,90.00,240822,,,R,V*2A
$GNGGA,022521.00,3733.5422645,N,12659.6252609,E,4,12,0.52,49.044,M,18.476,M,1.0,0020*5E
$GNHDT,179.449,T*2D
$GNRMC,022521.20,A,3733.5422673,N,12659.6253547,E,1.306,85.68,240822,,,R,V*2E
$GNGGA,022521.20,3733.5422673,N,12659.6253547,E,4,12,0.55,49.038,M,18.476,M,1.2,0020*5F
$GNHDT,180.052,T*25
$GNRMC,022521.40,A,3733.5422687,N,12659.6254513,E,1.448,87.42,240822,,,R,V*22
$GNGGA,022521.40,3733.5422687,N,12659.6254513,E,4,12,0.52,49.051,M,18.476,M,0.4,0020*5B
$GNHDT,179.757,T*21
$GNRMC,022521.60,A,3733.5422685,N,12659.6255693,E,1.579,91.63,240822,,,R,V*2F
$GNGGA,022521.60,3733.5422685,N,12659.6255693,E,4,12,0.52,49.052,M,18.476,M,0.6,0020*50
$GNHDT,179.141,T*20
$GNRMC,022521.80,A,3733.5422702,N,12659.6256734,E,1.489,87.32,240822,,,R,V*2D
$GNGGA,022521.80,3733.5422702,N,12659.6256734,E,4,12,0.52,49.041,M,18.476,M,0.8,0020*53
$GNHDT,179.122,T*25
$GNRMC,022522.00,A,3733.5422763,N,12659.6257653,E,1.375,87.28,240822,,,R,V*2F
$GNGGA,022522.00,3733.5422763,N,12659.6257653,E,4,12,0.52,49.055,M,18.476,M,1.0,0020*52
$GNHDT,179.580,T*29
$GNRMC,022522.20,A,3733.5422788,N,12659.6258545,E,1.247,87.50,240822,,,R,V*2C
$GNGGA,022522.20,3733.5422788,N,12659.6258545,E,4,12,0.52,49.059,M,18.476,M,1.2,0020*50
$GNHDT,180.410,T*27
$GNRMC,022522.40,A,3733.5422801,N,12659.6259431,E,1.284,87.34,240822,,,R,V*2A
$GNGGA,022522.40,3733.5422801,N,12659.6259431,E,4,12,0.52,49.063,M,18.476,M,0.4,0020*55
$GNHDT,180.809,T*23
$GNRMC,022522.60,A,3733.5422815,N,12659.6260399,E,1.389,87.58,240822,,,R,V*24
$GNGGA,022522.60,3733.5422815,N,12659.6260399,E,4,12,0.52,49.056,M,18.476,M,0.6,0020*59
$GNHDT,181.091,T*2B
$GNRMC,022522.80,A,3733.5422789,N,12659.6261354,E,1.325,91.53,240822,,,R,V*2A
$GNGGA,022522.80,3733.5422789,N,12659.6261354,E,4,12,0.52,49.065,M,18.476,M,0.8,0020*53
$GNHDT,181.135,T*24
$GNRMC,022523.00,A,3733.5422820,N,12659.6262329,E,1.413,89.30,240822,,,R,V*28
$GNGGA,022523.00,3733.5422820,N,12659.6262329,E,4,12,0.52,49.073,M,18.476,M,1.0,0020*51
$GNHDT,180.631,T*26
$GNRMC,022523.20,A,3733.5422818,N,12659.6263459,E,1.605,94.08,240822,,,R,V*22
$GNGGA,022523.20,3733.5422818,N,12659.6263459,E,4,12,0.52,49.086,M,18.476,M,0.2,0020*50
$GNHDT,179.080,T*2C
$GNRMC,022523.40,A,3733.5422773,N,12659.6264622,E,1.684,92.00,240822,,,R,V*28
$GNGGA,022523.40,3733.5422773,N,12659.6264622,E,4,12,0.52,49.088,M,18.476,M,0.4,0020*55
$GNHDT,177.894,T*2F
$GNRMC,022523.60,A,3733.5422614,N,12659.6265903,E,1.706,89.69,240822,,,R,V*29
$GNGGA,022523.60,3733.5422614,N,12659.6265903,E,4,12,0.52,49.061,M,18.476,M,0.6,0020*5F
$GNHDT,177.081,T*23
$GNRMC,022523.80,A,3733.5422675,N,12659.6266947,E,1.517,86.56,240822,,,R,V*22
$GNGGA,022523.80,3733.5422675,N,12659.6266947,E,4,12,0.52,49.052,M,18.476,M,0.8,0020*5B
$GNHDT,176.722,T*2C
$GNRMC,022524.00,A,3733.5422737,N,12659.6267892,E,1.403,86.65,240822,,,R,V*26
$GNGGA,022524.00,3733.5422737,N,12659.6267892,E,4,12,0.52,49.053,M,18.476,M,1.0,0020*53
$GNHDT,177.290,T*21
$GNRMC,022524.20,A,3733.5422779,N,12659.6269013,E,1.531,87.08,240822,,,R,V*2B
$GNGGA,022524.20,3733.5422779,N,12659.6269013,E,4,12,0.52,49.075,M,18.476,M,0.2,0020*53
$GNHDT,177.155,T*2B
$GNRMC,022524.40,A,3733.5422833,N,12659.6270126,E,1.568,86.29,240822,,,R,V*2D
$GNGGA,022524.40,3733.5422833,N,12659.6270126,E,4,12,0.52,49.068,M,18.476,M,0.4,0020*51
$GNHDT,176.801,T*22
$GNRMC,022524.60,A,3733.5422915,N,12659.6271258,E,1.691,87.66,240822,,,R,V*2E
$GNGGA,022524.60,3733.5422915,N,12659.6271258,E,4,12,0.52,49.070,M,18.476,M,0.6,0020*56
$GNHDT,176.359,T*24
$GNRMC,022524.80,A,3733.5422936,N,12659.6272435,E,1.657,87.52,240822,,,R,V*22
$GNGGA,022524.80,3733.5422936,N,12659.6272435,E,4,12,0.52,49.077,M,18.476,M,0.8,0020*5E
$GNHDT,175.859,T*2C
$GNRMC,022525.00,A,3733.5422957,N,12659.6273536,E,1.596,87.45,240822,,,R,V*27
$GNGGA,022525.00,3733.5422957,N,12659.6273536,E,4,12,0.52,49.071,M,18.476,M,1.0,0020*5C
$GNHDT,175.344,T*2B
$GNRMC,022525.20,A,3733.5423037,N,12659.6274625,E,1.499,84.69,240822,,,R,V*2E
$GNGGA,022525.20,3733.5423037,N,12659.6274625,E,4,12,0.52,49.065,M,18.476,M,1.2,0020*51
$GNHDT,175.272,T*2F
$GNRMC,022525.40,A,3733.5423120,N,12659.6275636,E,1.505,84.74,240822,,,R,V*24
$GNGGA,022525.40,3733.5423120,N,12659.6275636,E,4,12,0.52,49.060,M,18.476,M,1.4,0020*50
$GNHDT,175.767,T*2E
$GNRMC,022525.60,A,3733.5423184,N,12659.6276702,E,1.499,86.17,240822,,,R,V*2E
$GNGGA,022525.60,3733.5423184,N,12659.6276702,E,4,12,0.52,49.062,M,18.476,M,0.6,0020*58
$GNHDT,175.915,T*25
$GNRMC,022525.80,A,3733.5423245,N,12659.6277695,E,1.408,84.22,240822,,,R,V*2C
$GNGGA,022525.80,3733.5423245,N,12659.6277695,E,4,12,0.52,49.063,M,18.476,M,0.8,0020*59
$GNHDT,176.098,T*2A
$GNRMC,022526.00,A,3733.5423329,N,12659.6278722,E,1.521,84.65,240822,,,R,V*27
$GNGGA,022526.00,3733.5423329,N,12659.6278722,E,4,12,0.52,49.069,M,18.476,M,1.0,0020*58
$GNHDT,176.181,T*23
$GNRMC,022526.20,A,3733.5423393,N,12659.6279679,E,1.411,85.03,240822,,,R,V*29
$GNGGA,022526.20,3733.5423393,N,12659.6279679,E,4,12,0.52,49.072,M,18.476,M,0.2,0020*5C
$GNHDT,176.923,T*23
$GNRMC,022526.40,A,3733.5423483,N,12659.6280512,E,1.175,81.98,240822,,,R,V*20
$GNGGA,022526.40,3733.5423483,N,12659.6280512,E,4,12,0.52,49.069,M,18.476,M,0.4,0020*58
$GNHDT,177.734,T*2A
$GNRMC,022526.60,A,3733.5423537,N,12659.6281374,E,1.235,85.70,240822,,,R,V*2E
$GNGGA,022526.60,3733.5423537,N,12659.6281374,E,4,12,0.52,49.068,M,18.476,M,0.6,0020*50
$GNHDT,178.341,T*23
$GNRMC,022526.80,A,3733.5423623,N,12659.6282258,E,1.271,83.81,240822,,,R,V*22
$GNGGA,022526.80,3733.5423623,N,12659.6282258,E,4,12,0.52,49.094,M,18.476,M,0.8,0020*59
$GNHDT,178.621,T*20
$GNRMC,022527.00,A,3733.5423606,N,12659.6283252,E,1.340,88.70,240822,,,R,V*21
$GNGGA,022527.00,3733.5423606,N,12659.6283252,E,4,12,0.52,49.087,M,18.476,M,1.0,0020*57
$GNHDT,178.493,T*2B
$GNRMC,022527.20,A,3733.5423551,N,12659.6284324,E,1.503,91.53,240822,,,R,V*2D
$GNGGA,022527.20,3733.5423551,N,12659.6284324,E,4,12,0.52,49.084,M,18.476,M,1.2,0020*52
$GNHDT,177.398,T*28
$GNRMC,022527.40,A,3733.5423605,N,12659.6285218,E,1.359,86.90,240822,,,R,V*26
$GNGGA,022527.40,3733.5423605,N,12659.6285218,E,4,12,0.52,49.087,M,18.476,M,0.4,0020*5D
$GNHDT,177.098,T*2B
$GNRMC,022527.60,A,3733.5423626,N,12659.6286245,E,1.438,88.51,240822,,,R,V*2D
$GNGGA,022527.60,3733.5423626,N,12659.6286245,E,4,12,0.52,49.077,M,18.476,M,0.6,0020*58
$GNHDT,176.965,T*21
$GNRMC,022527.80,A,3733.5423673,N,12659.6287159,E,1.302,84.84,240822,,,R,V*26
$GNGGA,022527.80,3733.5423673,N,12659.6287159,E,4,12,0.52,49.079,M,18.476,M,0.8,0020*59
$GNHDT,176.907,T*25
$GNRMC,022528.00,A,3733.5423735,N,12659.6287974,E,1.121,81.07,240822,,,R,V*28
$GNGGA,022528.00,3733.5423735,N,12659.6287974,E,4,12,0.52,49.068,M,18.476,M,1.0,0020*53
$GNHDT,177.419,T*26
$GNRMC,022528.20,A,3733.5423805,N,12659.6288766,E,1.161,86.19,240822,,,R,V*28
$GNGGA,022528.20,3733.5423805,N,12659.6288766,E,4,12,0.52,49.075,M,18.476,M,0.2,0020*50
$GNHDT,178.454,T*20
$GNRMC,022528.40,A,3733.5423800,N,12659.6289665,E,1.188,87.64,240822,,,R,V*24
$GNGGA,022528.40,3733.5423800,N,12659.6289665,E,4,12,0.52,49.080,M,18.476,M,0.4,0020*5C
$GNHDT,178.848,T*21
$GNRMC,022528.60,A,3733.5423838,N,12659.6290542,E,1.286,87.02,240822,,,R,V*2E
$GNGGA,022528.60,3733.5423838,N,12659.6290542,E,4,12,0.52,49.077,M,18.476,M,0.6,0020*51
$GNHDT,178.731,T*20
$GNRMC,022528.80,A,3733.5423833,N,12659.6291446,E,1.346,90.75,240822,,,R,V*24
$GNGGA,022528.80,3733.5423833,N,12659.6291446,E,4,12,0.52,49.084,M,18.476,M,0.8,0020*52
$GNHDT,178.173,T*20
$GNRMC,022529.00,A,3733.5423839,N,12659.6292315,E,1.240,88.22,240822,,,R,V*29
$GNGGA,022529.00,3733.5423839,N,12659.6292315,E,4,12,0.52,49.080,M,18.476,M,1.0,0020*5E
$GNHDT,178.464,T*23
$GNRMC,022529.20,A,3733.5423884,N,12659.6293226,E,1.287,87.60,240822,,,R,V*2F
$GNGGA,022529.20,3733.5423884,N,12659.6293226,E,4,12,0.52,49.074,M,18.476,M,1.2,0020*53
$GNHDT,178.723,T*23
$GNRMC,022529.40,A,3733.5423867,N,12659.6294124,E,1.328,91.45,240822,,,R,V*26
$GNGGA,022529.40,3733.5423867,N,12659.6294124,E,4,12,0.52,49.063,M,18.476,M,0.4,0020*5F
$GNHDT,178.037,T*21
$GNRMC,022529.60,A,3733.5423857,N,12659.6295114,E,1.454,90.98,240822,,,R,V*28
$GNGGA,022529.60,3733.5423857,N,12659.6295114,E,4,12,0.52,49.073,M,18.476,M,0.6,0020*5F
$GNHDT,176.938,T*29
$GNRMC,022529.80,A,3733.5423901,N,12659.6296002,E,1.268,86.58,240822,,,R,V*23
$GNGGA,022529.80,3733.5423901,N,12659.6296002,E,4,12,0.52,49.077,M,18.476,M,0.8,0020*5C
$GNHDT,176.736,T*29
$GNRMC,022530.00,A,3733.5423909,N,12659.6296850,E,1.100,84.66,240822,,,R,V*26
$GNGGA,022530.00,3733.5423909,N,12659.6296850,E,4,12,0.52,49.070,M,18.476,M,1.0,0020*55
$GNHDT,176.711,T*2C
$GNRMC,022530.20,A,3733.5423941,N,12659.6297713,E,1.212,86.22,240822,,,R,V*23
$GNGGA,022530.20,3733.5423941,N,12659.6297713,E,4,12,0.51,49.062,M,18.476,M,1.2,0020*50
$GNHDT,176.936,T*27
$GNRMC,022530.40,A,3733.5423990,N,12659.6298596,E,1.226,82.68,240822,,,R,V*24
$GNGGA,022530.40,3733.5423990,N,12659.6298596,E,4,12,0.51,49.052,M,18.476,M,0.4,0020*5E
$GNHDT,177.821,T*21
$GNRMC,022530.60,A,3733.5424101,N,12659.6299357,E,1.204,85.91,240822,,,R,V*2A
$GNGGA,022530.60,3733.5424101,N,12659.6299357,E,4,12,0.51,49.062,M,18.476,M,0.6,0020*50
$GNHDT,178.756,T*21
$GNRMC,022530.80,A,3733.5424104,N,12659.6300224,E,1.213,90.73,240822,,,R,V*2B
$GNGGA,022530.80,3733.5424104,N,12659.6300224,E,4,12,0.52,49.067,M,18.476,M,0.8,0020*57
$GNHDT,178.894,T*20
$GNRMC,022531.00,A,3733.5424161,N,12659.6301086,E,1.269,87.99,240822,,,R,V*25
$GNGGA,022531.00,3733.5424161,N,12659.6301086,E,4,12,0.51,49.070,M,18.476,M,1.0,0020*5A
$GNHDT,178.864,T*2F
$GNRMC,022531.20,A,3733.5424181,N,12659.6301912,E,1.260,88.05,240822,,,R,V*2E
$GNGGA,022531.20,3733.5424181,N,12659.6301912,E,4,12,0.53,49.084,M,18.476,M,0.2,0020*58
$GNHDT,178.578,T*2F
$GNRMC,022531.40,A,3733.5424102,N,12659.6302969,E,1.401,90.49,240822,,,R,V*2C
